{
  "_comment": "Pins on the home-page world map. kind: branch (purple) | local (coral) | partner (dark). contact rows: [emoji, text, optional link]. To add a pin: copy a block and fill in latitude/longitude.",
  "kinds": {
    "branch": "National Branch",
    "local": "Local Chapter",
    "partner": "Partner"
  },
  "spots": [
    {
      "name": "Sakyadhita Korea",
      "kind": "branch",
      "lat": 37.55,
      "lng": 126.99,
      "desc": "Hosted the 18th International Conference in 2023.",
      "contact": [
        {
          "icon": "📧",
          "text": "korea@sakyadhita.org",
          "url": "mailto:korea@sakyadhita.org"
        }
      ]
    },
    {
      "name": "Sakyadhita Mongolia",
      "kind": "branch",
      "lat": 47.92,
      "lng": 106.92,
      "desc": "Active in translation and Buddhist education across Central Asia.",
      "contact": [
        {
          "icon": "📞",
          "text": "+976 70183588"
        },
        {
          "icon": "📧",
          "text": "mongolia@sakyadhita.org",
          "url": "mailto:mongolia@sakyadhita.org"
        }
      ]
    },
    {
      "name": "Sakyadhita Malaysia (KBS)",
      "kind": "branch",
      "lat": 1.55,
      "lng": 110.34,
      "desc": "Hosted the 19th International Conference in Sarawak, 2025.",
      "contact": [
        {
          "icon": "📧",
          "text": "malaysia@sakyadhita.org",
          "url": "mailto:malaysia@sakyadhita.org"
        }
      ]
    },
    {
      "name": "India · Bodh Gaya",
      "kind": "local",
      "lat": 24.69,
      "lng": 84.99,
      "desc": "Where Sakyadhita was founded in 1987.",
      "contact": [
        {
          "icon": "📧",
          "text": "bodhgaya@sakyadhita.org",
          "url": "mailto:bodhgaya@sakyadhita.org"
        }
      ]
    },
    {
      "name": "Sri Lanka",
      "kind": "local",
      "lat": 6.93,
      "lng": 79.85,
      "desc": "Active in bhikkhuni ordination support and educational outreach.",
      "contact": [
        {
          "icon": "📧",
          "text": "srilanka@sakyadhita.org",
          "url": "mailto:srilanka@sakyadhita.org"
        }
      ]
    },
    {
      "name": "Taiwan",
      "kind": "local",
      "lat": 25.03,
      "lng": 121.56,
      "desc": "Coordinated through Foguang Shan and Dharma Drum Mountain alumni networks.",
      "contact": [
        {
          "icon": "📧",
          "text": "taiwan@sakyadhita.org",
          "url": "mailto:taiwan@sakyadhita.org"
        }
      ]
    },
    {
      "name": "Sakyadhita USA",
      "kind": "branch",
      "lat": 32.72,
      "lng": -117.16,
      "desc": "Headquartered in San Diego, California.",
      "contact": [
        {
          "icon": "📞",
          "text": "+1 858-525-5173 (HST)"
        },
        {
          "icon": "📧",
          "text": "service.sakyadhita@gmail.com",
          "url": "mailto:service.sakyadhita@gmail.com"
        }
      ]
    },
    {
      "name": "Sakyadhita Brazil",
      "kind": "branch",
      "lat": -23.55,
      "lng": -46.63,
      "desc": "Active community based in São Paulo.",
      "contact": [
        {
          "icon": "📞",
          "text": "+55 11 9334-833244"
        },
        {
          "icon": "📧",
          "text": "brazil@sakyadhita.org",
          "url": "mailto:brazil@sakyadhita.org"
        }
      ]
    },
    {
      "name": "Canada",
      "kind": "local",
      "lat": 43.65,
      "lng": -79.38,
      "desc": "Members in Toronto, Vancouver, and Montréal.",
      "contact": [
        {
          "icon": "📧",
          "text": "canada@sakyadhita.org",
          "url": "mailto:canada@sakyadhita.org"
        }
      ]
    },
    {
      "name": "Sakyadhita France",
      "kind": "branch",
      "lat": 48.58,
      "lng": 7.75,
      "desc": "Strasbourg-based national branch.",
      "contact": [
        {
          "icon": "📍",
          "text": "71 Boulevard d'Anvers, Strasbourg"
        },
        {
          "icon": "📧",
          "text": "france@sakyadhita.org",
          "url": "mailto:france@sakyadhita.org"
        }
      ]
    },
    {
      "name": "Sakyadhita Germany",
      "kind": "branch",
      "lat": 53.55,
      "lng": 9.99,
      "desc": "Coordinates with Hamburg University vinaya scholars.",
      "contact": [
        {
          "icon": "📧",
          "text": "germany@sakyadhita.org",
          "url": "mailto:germany@sakyadhita.org"
        }
      ]
    },
    {
      "name": "Sakyadhita Spain",
      "kind": "branch",
      "lat": 40.42,
      "lng": -3.7,
      "desc": "Spanish-speaking platform for Buddhist women — Dharma in Spanish with a gender perspective.",
      "contact": [
        {
          "icon": "📧",
          "text": "sakyadhitaspain@gmail.com",
          "url": "mailto:sakyadhitaspain@gmail.com"
        },
        {
          "icon": "🌐",
          "text": "sakyadhitaspain.org",
          "url": "https://sakyadhitaspain.org/"
        }
      ]
    },
    {
      "name": "Network of Buddhist Women in Europe",
      "kind": "partner",
      "lat": 50.85,
      "lng": 4.35,
      "desc": "Pan-European federation of Buddhist women's organizations.",
      "contact": [
        {
          "icon": "🌐",
          "text": "buddhistwomen.eu",
          "url": "https://buddhistwomen.eu"
        }
      ]
    },
    {
      "name": "Egypt · Cairo",
      "kind": "local",
      "lat": 30.04,
      "lng": 31.24,
      "desc": "Newest addition to the directory (2024).",
      "contact": [
        {
          "icon": "📞",
          "text": "+2 443-8982"
        }
      ]
    }
  ]
}